[
 {
   "id": 1,
   "name": "リーベンハウス汐留住友ビル店",
   "type": "リーベンハウス",
   "latitude": 35.66231148,
   "longitude": 139.7602397,
   "address": "東京都港区東新橋1-9-2　汐留住友ビル2F"
 },
 {
   "id": 2,
   "name": "リーベンハウス三田ツインビル店",
   "type": "リーベンハウス",
   "latitude": 35.6436242,
   "longitude": 139.742117,
   "address": "東京都港区三田3-5-27　住友不動産三田ツインビル西館1F"
 },
 {
   "id": 3,
   "name": "リーベンハウス泉ガーデンタワー店",
   "type": "リーベンハウス",
   "latitude": 35.66463014,
   "longitude": 139.739472,
   "address": "東京都港区六本木1-6-1　泉ガーデンタワー4F　"
 },
 {
   "id": 4,
   "name": "リーベンハウス田町ファーストビル店",
   "type": "リーベンハウス",
   "latitude": 35.63887485,
   "longitude": 139.7448169,
   "address": "東京都港区芝浦4-6-8　住友不動産田町ファーストビル1F"
 },
 {
   "id": 5,
   "name": "ファミリーマート　東京ミッドタウン店",
   "type": "ファミリーマート",
   "latitude": 35.6662941,
   "longitude": 139.7313329,
   "address": "東京都港区赤坂9丁目7-1"
 },
 {
   "id": 6,
   "name": "ファミマ芝パーク店",
   "type": "ファミリーマート",
   "latitude": 35.65524982,
   "longitude": 139.7522984,
   "address": "東京都港区芝公園2丁目4-1"
 },
 {
   "id": 7,
   "name": "ファミリーマート　六本木東店",
   "type": "ファミリーマート",
   "latitude": 35.66229961,
   "longitude": 139.7348897,
   "address": "東京都港区六本木3-14-9"
 },
 {
   "id": 8,
   "name": "ファミリーマート　サンズ高輪四丁目店",
   "type": "ファミリーマート",
   "latitude": 35.62670062,
   "longitude": 139.7351049,
   "address": "東京都港区高輪4-20-3"
 },
 {
   "id": 9,
   "name": "ファミリーマート　青山外苑東通り店",
   "type": "ファミリーマート",
   "latitude": 35.67229332,
   "longitude": 139.7257481,
   "address": "東京都港区南青山一丁目2番6号"
 },
 {
   "id": 10,
   "name": "ファミリーマート　麻布運動場前店",
   "type": "ファミリーマート",
   "latitude": 35.6520606,
   "longitude": 139.7293036,
   "address": "東京都港区南麻布三丁目1番1号"
 },
 {
   "id": 11,
   "name": "ファミリーマート　アークヒルズ前店",
   "type": "ファミリーマート",
   "latitude": 35.66722718,
   "longitude": 139.7387942,
   "address": "東京都港区六本木2-2-8KDX六本木228ビル"
 },
 {
   "id": 12,
   "name": "ファミリーマート　西新橋スクエア店",
   "type": "ファミリーマート",
   "latitude": 35.66936333,
   "longitude": 139.7542468,
   "address": "東京都港区西新橋1丁目3-1"
 },
 {
   "id": 13,
   "name": "ファミリーマート　南山堂第一京浜芝店",
   "type": "ファミリーマート",
   "latitude": 35.65073935,
   "longitude": 139.7534555,
   "address": "東京都港区芝2丁目14-5 芝二丁目大広ビル"
 },
 {
   "id": 14,
   "name": "ファミリーマート　品川グランパサージュ店",
   "type": "ファミリーマート",
   "latitude": 35.62615689,
   "longitude": 139.7409595,
   "address": "東京都港区港南2丁目16-5"
 },
 {
   "id": 15,
   "name": "ファミリーマート　ミヤモトドラッグ御成門店",
   "type": "ファミリーマート",
   "latitude": 35.66107618,
   "longitude": 139.7518023,
   "address": "東京都港区新橋6丁目17-15"
 },
 {
   "id": 16,
   "name": "ファミリーマート　ＭＳＣセンタービル店",
   "type": "ファミリーマート",
   "latitude": 35.64131556,
   "longitude": 139.7572195,
   "address": "東京都港区海岸3丁目22-23"
 },
 {
   "id": 17,
   "name": "ファミマ汐留シティセンター店",
   "type": "ファミリーマート",
   "latitude": 35.66544593,
   "longitude": 139.7608433,
   "address": "東京都港区東新橋1丁目5-2汐留シティセンター"
 },
 {
   "id": 18,
   "name": "ファミリーマート　南青山四丁目店",
   "type": "ファミリーマート",
   "latitude": 35.66670676,
   "longitude": 139.7173881,
   "address": "東京都港区南青山4丁目9-22 アウラビル"
 },
 {
   "id": 19,
   "name": "ファミリーマート　品川駅港南口店",
   "type": "ファミリーマート",
   "latitude": 35.62977848,
   "longitude": 139.7415883,
   "address": "東京都港区港南1-9-32NTT DATA 品川ビル 別館"
 },
 {
   "id": 20,
   "name": "ファミリーマート　西麻布一丁目店",
   "type": "ファミリーマート",
   "latitude": 35.66042459,
   "longitude": 139.7250407,
   "address": "東京都港区西麻布1-8-10"
 },
 {
   "id": 21,
   "name": "ファミリーマート　浜松町二丁目店",
   "type": "ファミリーマート",
   "latitude": 35.65616179,
   "longitude": 139.7548742,
   "address": "東京都港区浜松町2丁目1-17 松永ビル"
 },
 {
   "id": 22,
   "name": "ファミリーマート　六本木テレ朝通り店",
   "type": "ファミリーマート",
   "latitude": 35.65846386,
   "longitude": 139.7274255,
   "address": "東京都港区西麻布3丁目2-21"
 },
 {
   "id": 23,
   "name": "ファミリーマート　港南四丁目店",
   "type": "ファミリーマート",
   "latitude": 35.62939183,
   "longitude": 139.7507636,
   "address": "東京都港区港南4-7-55"
 },
 {
   "id": 24,
   "name": "ファミリーマート　オンワードベイパークビル店",
   "type": "ファミリーマート",
   "latitude": 35.63771292,
   "longitude": 139.753679,
   "address": "東京都港区海岸3丁目9-32"
 },
 {
   "id": 25,
   "name": "ファミリーマート　三田一丁目店",
   "type": "ファミリーマート",
   "latitude": 35.65494055,
   "longitude": 139.7405685,
   "address": "東京都港区三田1丁目2-18"
 },
 {
   "id": 26,
   "name": "ファミリーマート　麻布十番商店街通り店",
   "type": "ファミリーマート",
   "latitude": 35.65555837,
   "longitude": 139.7358069,
   "address": "東京都港区麻布十番2丁目2-4"
 },
 {
   "id": 27,
   "name": "ファミリーマート　赤坂六丁目店",
   "type": "ファミリーマート",
   "latitude": 35.67145464,
   "longitude": 139.7356903,
   "address": "東京都港区赤坂6丁目3-20"
 },
 {
   "id": 28,
   "name": "ファミリーマート　自然教育園前店",
   "type": "ファミリーマート",
   "latitude": 35.63471738,
   "longitude": 139.720015,
   "address": "東京都港区白金台3丁目19-1"
 },
 {
   "id": 29,
   "name": "ファミマ品川シーズンテラス２号店",
   "type": "ファミリーマート",
   "latitude": 35.63229224,
   "longitude": 139.7432691,
   "address": "東京都港区港南1丁目2-70品川シーズンテラス1階"
 },
 {
   "id": 30,
   "name": "ファミリーマート　三田ステーションビル店",
   "type": "ファミリーマート",
   "latitude": 35.64685361,
   "longitude": 139.7466502,
   "address": "東京都港区芝5-31-7三田ステーションビル3F"
 },
 {
   "id": 31,
   "name": "ファミリーマート　汐留タワー店",
   "type": "ファミリーマート",
   "latitude": 35.66413406,
   "longitude": 139.7604454,
   "address": "東京都港区東新橋1丁目6-3"
 },
 {
   "id": 32,
   "name": "ファミリーマート　六本木三丁目店",
   "type": "ファミリーマート",
   "latitude": 35.66346255,
   "longitude": 139.7374544,
   "address": "東京都港区六本木3-3-7"
 },
 {
   "id": 33,
   "name": "ファミリーマート　ニューピア竹芝店",
   "type": "ファミリーマート",
   "latitude": 35.65362827,
   "longitude": 139.7624616,
   "address": "東京都港区海岸1丁目16-1"
 },
 {
   "id": 34,
   "name": "ファミリーマート　品川埠頭店",
   "type": "ファミリーマート",
   "latitude": 35.62811216,
   "longitude": 139.7565371,
   "address": "東京都港区港南5丁目5-30"
 },
 {
   "id": 35,
   "name": "ファミリーマート　三田三丁目店",
   "type": "ファミリーマート",
   "latitude": 35.64327793,
   "longitude": 139.7428327,
   "address": "東京都港区三田3丁目13-12三田MTビル"
 },
 {
   "id": 36,
   "name": "ファミリーマート　西新橋一丁目店",
   "type": "ファミリーマート",
   "latitude": 35.66922233,
   "longitude": 139.7535308,
   "address": "東京都港区西新橋1丁目5-11"
 },
 {
   "id": 37,
   "name": "ファミリーマート　お台場海浜公園店",
   "type": "ファミリーマート",
   "latitude": 35.63086127,
   "longitude": 139.7786349,
   "address": "東京都港区台場1-5-7-101"
 },
 {
   "id": 38,
   "name": "ファミマ東京ワールドゲート店",
   "type": "ファミリーマート",
   "latitude": 35.66537554,
   "longitude": 139.7453747,
   "address": "東京都港区虎ノ門4-1-1"
 },
 {
   "id": 39,
   "name": "ファミマ仙石山森タワー店",
   "type": "ファミリーマート",
   "latitude": 35.66371663,
   "longitude": 139.7415951,
   "address": "東京都港区六本木1丁目9番10号"
 },
 {
   "id": 40,
   "name": "ファミリーマート　南青山店",
   "type": "ファミリーマート",
   "latitude": 35.66132724,
   "longitude": 139.7119168,
   "address": "東京都港区南青山5丁目11-15-102"
 },
 {
   "id": 41,
   "name": "ファミリーマート　麻布十番一丁目店",
   "type": "ファミリーマート",
   "latitude": 35.65666822,
   "longitude": 139.7344909,
   "address": "東京都港区麻布十番1丁目7-1 MGB麻布十番"
 },
 {
   "id": 42,
   "name": "ファミリーマート　お台場東京ビーチ店",
   "type": "ファミリーマート",
   "latitude": 35.62848845,
   "longitude": 139.7754273,
   "address": "東京都港区台場1丁目6番1号デックス東京ビ-チ"
 },
 {
   "id": 43,
   "name": "ファミリーマート　外苑南青山二丁目店",
   "type": "ファミリーマート",
   "latitude": 35.66972142,
   "longitude": 139.716811,
   "address": "東京都港区南青山2-27-28"
 },
 {
   "id": 44,
   "name": "ファミリーマート　リバージュ品川店",
   "type": "ファミリーマート",
   "latitude": 35.62968166,
   "longitude": 139.7466179,
   "address": "東京都港区港南4丁目1-10"
 },
 {
   "id": 45,
   "name": "ファミリーマート　元赤坂一丁目店",
   "type": "ファミリーマート",
   "latitude": 35.676942,
   "longitude": 139.7341092,
   "address": "東京都港区元赤坂1丁目3-9"
 },
 {
   "id": 46,
   "name": "ファミリーマート　地下鉄六本木駅店",
   "type": "ファミリーマート",
   "latitude": 35.66243653,
   "longitude": 139.731907,
   "address": "東京都港区六本木六丁目1-24ラピロス六本木"
 },
 {
   "id": 47,
   "name": "ファミマ虎ノ門ヒルズ店",
   "type": "ファミリーマート",
   "latitude": 35.66692347,
   "longitude": 139.7491253,
   "address": "東京都港区虎ノ門1丁目23-3"
 },
 {
   "id": 48,
   "name": "ファミリーマート　六本木六丁目店",
   "type": "ファミリーマート",
   "latitude": 35.66125668,
   "longitude": 139.7326949,
   "address": "東京都港区六本木6丁目8-10"
 },
 {
   "id": 49,
   "name": "ファミリーマート　台場フロンティア店",
   "type": "ファミリーマート",
   "latitude": 35.62848351,
   "longitude": 139.7776641,
   "address": "東京都港区台場2丁目3-2"
 },
 {
   "id": 50,
   "name": "ローソン　芝公園駅前店",
   "type": "ローソン",
   "latitude": 35.65263444,
   "longitude": 139.7501047,
   "address": "東京都港区芝２丁目７−２"
 },
 {
   "id": 51,
   "name": "ローソン　文化放送メディアプラス店",
   "type": "ローソン",
   "latitude": 35.65687028,
   "longitude": 139.7572097,
   "address": "東京都港区浜松町１丁目３１"
 },
 {
   "id": 52,
   "name": "ローソン　溜池山王店",
   "type": "ローソン",
   "latitude": 35.671735,
   "longitude": 139.7420603,
   "address": "東京都港区赤坂２丁目２−１７"
 },
 {
   "id": 53,
   "name": "ローソン　金杉橋店",
   "type": "ローソン",
   "latitude": 35.65230417,
   "longitude": 139.7543933,
   "address": "東京都港区芝１丁目５−１２"
 },
 {
   "id": 54,
   "name": "ローソンストア１００芝浦二丁目店",
   "type": "ローソン",
   "latitude": 35.6449075,
   "longitude": 139.7520106,
   "address": "東京都港区芝浦２丁目１７−１２"
 },
 {
   "id": 55,
   "name": "ローソン　フジテレビ店",
   "type": "ローソン",
   "latitude": 35.62685194,
   "longitude": 139.7741397,
   "address": "東京都港区台場２丁目４−８"
 },
 {
   "id": 56,
   "name": "ローソン　港区役所庁舎店",
   "type": "ローソン",
   "latitude": 35.65801444,
   "longitude": 139.7515961,
   "address": "東京都港区芝公園１丁目５−２５"
 },
 {
   "id": 57,
   "name": "ナチュラルローソン　南麻布二丁目店",
   "type": "ローソン",
   "latitude": 35.64950667,
   "longitude": 139.7339119,
   "address": "東京都港区南麻布２丁目１−８"
 },
 {
   "id": 58,
   "name": "ローソン芝浦埠頭店",
   "type": "ローソン",
   "latitude": 35.64472444,
   "longitude": 139.7566017,
   "address": "東京都港区海岸３丁目１８−１"
 },
 {
   "id": 59,
   "name": "ローソン港赤坂九丁目店",
   "type": "ローソン",
   "latitude": 35.6681075,
   "longitude": 139.7327586,
   "address": "東京都港区赤坂９丁目１−７"
 },
 {
   "id": 60,
   "name": "ローソン　芝浦２丁目店",
   "type": "ローソン",
   "latitude": 35.64528556,
   "longitude": 139.7545908,
   "address": "東京都港区芝浦２丁目４−１"
 },
 {
   "id": 61,
   "name": "ナチュラルローソン　芝浦アイランドケープ店",
   "type": "ローソン",
   "latitude": 35.63798889,
   "longitude": 139.7504386,
   "address": "東京都港区芝浦４丁目１９−１"
 },
 {
   "id": 62,
   "name": "ローソン港三田三丁目店",
   "type": "ローソン",
   "latitude": 35.64686833,
   "longitude": 139.7441333,
   "address": "東京都港区三田３丁目４−１５"
 },
 {
   "id": 63,
   "name": "ローソン　赤坂四丁目店",
   "type": "ローソン",
   "latitude": 35.67662028,
   "longitude": 139.7345497,
   "address": "東京都港区赤坂４丁目１−２９"
 },
 {
   "id": 64,
   "name": "ナチュラルローソン　芝五丁目店",
   "type": "ローソン",
   "latitude": 35.64867083,
   "longitude": 139.7468108,
   "address": "東京都港区芝５丁目１７−１"
 },
 {
   "id": 65,
   "name": "ナチュラルローソン 虎の門病院9階店",
   "type": "ローソン",
   "latitude": 35.6685879,
   "longitude": 139.7451129,
   "address": "東京都港区虎ノ門2丁目2-2"
 },
 {
   "id": 66,
   "name": "ナチュラルローソン 虎の門病院2階店",
   "type": "ローソン",
   "latitude": 35.6685465,
   "longitude": 139.7451772,
   "address": "東京都港区虎ノ門2丁目2-2"
 },
 {
   "id": 67,
   "name": "ナチュラルローソン　コモディオ汐留店",
   "type": "ローソン",
   "latitude": 35.66063111,
   "longitude": 139.7575178,
   "address": "東京都港区東新橋２丁目１４−１"
 },
 {
   "id": 68,
   "name": "ナチュラルローソン　クオール薬局城山トラストタワー店",
   "type": "ローソン",
   "latitude": 35.66468861,
   "longitude": 139.7433106,
   "address": "東京都港区虎ノ門４丁目３−１"
 },
 {
   "id": 69,
   "name": "ローソン　芝浦４丁目店",
   "type": "ローソン",
   "latitude": 35.63981083,
   "longitude": 139.7471583,
   "address": "東京都港区芝浦４丁目９−１８"
 },
 {
   "id": 70,
   "name": "ローソン　白金高輪駅前店",
   "type": "ローソン",
   "latitude": 35.643935,
   "longitude": 139.7341706,
   "address": "東京都港区白金１丁目２７−６"
 },
 {
   "id": 71,
   "name": "ローソン　三田三丁目店",
   "type": "ローソン",
   "latitude": 35.64127167,
   "longitude": 139.7406644,
   "address": "東京都港区三田３丁目９−９"
 },
 {
   "id": 72,
   "name": "ローソン　麻布十番一丁目店",
   "type": "ローソン",
   "latitude": 35.65620889,
   "longitude": 139.7363058,
   "address": "東京都港区麻布十番１丁目１０−３"
 },
 {
   "id": 73,
   "name": "ローソン　アークヒルズフロントタワー店",
   "type": "ローソン",
   "latitude": 35.66792417,
   "longitude": 139.7392886,
   "address": "東京都港区赤坂２丁目２３−１"
 },
 {
   "id": 74,
   "name": "ローソン　芝公園４丁目店",
   "type": "ローソン",
   "latitude": 35.6591475,
   "longitude": 139.7440522,
   "address": "東京都港区芝公園４丁目１−４"
 },
 {
   "id": 75,
   "name": "ナチュラルローソン　六本木ヒルズ店",
   "type": "ローソン",
   "latitude": 35.66039972,
   "longitude": 139.7290425,
   "address": "東京都港区六本木６丁目１０−１"
 },
 {
   "id": 76,
   "name": "ローソン港南麻布店",
   "type": "ローソン",
   "latitude": 35.64996222,
   "longitude": 139.7365089,
   "address": "東京都港区南麻布２丁目２−１３"
 },
 {
   "id": 77,
   "name": "ローソン　古川橋店",
   "type": "ローソン",
   "latitude": 35.64809306,
   "longitude": 139.7363339,
   "address": "東京都港区南麻布２丁目１０−９"
 },
 {
   "id": 78,
   "name": "ナチュラルローソン　港芝浦三丁目店",
   "type": "ローソン",
   "latitude": 35.64293,
   "longitude": 139.7481164,
   "address": "東京都港区芝浦３丁目１４−１"
 },
 {
   "id": 79,
   "name": "ローソン　芝５丁目店",
   "type": "ローソン",
   "latitude": 35.64712389,
   "longitude": 139.7467414,
   "address": "東京都港区芝５丁目２７−１０"
 },
 {
   "id": 80,
   "name": "ローソン　赤坂九丁目店",
   "type": "ローソン",
   "latitude": 35.66795444,
   "longitude": 139.7290422,
   "address": "東京都港区赤坂９丁目５−２７"
 },
 {
   "id": 81,
   "name": "ローソン　田町駅東口店",
   "type": "ローソン",
   "latitude": 35.64328556,
   "longitude": 139.7491331,
   "address": "東京都港区芝浦３丁目１３−１"
 },
 {
   "id": 82,
   "name": "ローソン　赤坂六丁目店",
   "type": "ローソン",
   "latitude": 35.66997667,
   "longitude": 139.7337528,
   "address": "東京都港区赤坂６丁目１３−１６"
 },
 {
   "id": 83,
   "name": "ローソン　新橋五丁目店",
   "type": "ローソン",
   "latitude": 35.66291139,
   "longitude": 139.7547903,
   "address": "東京都港区新橋５丁目２７−１"
 },
 {
   "id": 84,
   "name": "ローソン　オークラプレステージタワー店",
   "type": "ローソン",
   "latitude": 35.66696333,
   "longitude": 139.7443492,
   "address": "東京都港区虎ノ門２丁目１０−４"
 },
 {
   "id": 85,
   "name": "ローソン　東新橋一丁目店",
   "type": "ローソン",
   "latitude": 35.66439167,
   "longitude": 139.7589064,
   "address": "東京都港区東新橋１丁目３−１"
 },
 {
   "id": 86,
   "name": "ローソン南青山二丁目店",
   "type": "ローソン",
   "latitude": 35.67040139,
   "longitude": 139.7202678,
   "address": "東京都港区南青山２丁目１４−１７"
 },
 {
   "id": 87,
   "name": "ローソン　芝公園南店",
   "type": "ローソン",
   "latitude": 35.65288444,
   "longitude": 139.7476161,
   "address": "東京都港区芝３丁目３−１２"
 },
 {
   "id": 88,
   "name": "ローソンストア１００　白金５丁目店",
   "type": "ローソン",
   "latitude": 35.64480972,
   "longitude": 139.7229158,
   "address": "東京都港区白金５丁目１５−５"
 },
 {
   "id": 89,
   "name": "ローソン　アクアシティお台場店",
   "type": "ローソン",
   "latitude": 35.62781861,
   "longitude": 139.7735675,
   "address": "東京都港区台場１丁目７−１"
 },
 {
   "id": 90,
   "name": "ローソン　芝三丁目店",
   "type": "ローソン",
   "latitude": 35.6503625,
   "longitude": 139.7479633,
   "address": "東京都港区芝３丁目３４−１"
 },
 {
   "id": 91,
   "name": "ローソン　新橋日比谷通店",
   "type": "ローソン",
   "latitude": 35.66782472,
   "longitude": 139.7549372,
   "address": "東京都港区新橋２丁目２−９"
 },
 {
   "id": 92,
   "name": "ナチュラルローソン　白金１丁目店",
   "type": "ローソン",
   "latitude": 35.64527667,
   "longitude": 139.7350425,
   "address": "東京都港区白金１丁目１２−１４"
 },
 {
   "id": 93,
   "name": "ローソン港南楽水橋店",
   "type": "ローソン",
   "latitude": 35.624535,
   "longitude": 139.7453508,
   "address": "東京都港区港南２丁目１１−１"
 },
 {
   "id": 94,
   "name": "ローソン　品川インターシティ店",
   "type": "ローソン",
   "latitude": 35.62629278,
   "longitude": 139.7420619,
   "address": "東京都港区港南２丁目１５−２"
 },
 {
   "id": 95,
   "name": "ナチュラルローソン　芝大門一丁目店",
   "type": "ローソン",
   "latitude": 35.65821722,
   "longitude": 139.7542292,
   "address": "東京都港区芝大門１丁目６−３"
 },
 {
   "id": 96,
   "name": "ローソン　新橋一丁目店",
   "type": "ローソン",
   "latitude": 35.66811361,
   "longitude": 139.7572981,
   "address": "東京都港区新橋１丁目１５−７"
 },
 {
   "id": 97,
   "name": "ナチュラルローソン　東麻布三丁目店",
   "type": "ローソン",
   "latitude": 35.65633944,
   "longitude": 139.7380419,
   "address": "東京都港区東麻布３丁目７−１３"
 },
 {
   "id": 98,
   "name": "ローソン品川埠頭店",
   "type": "ローソン",
   "latitude": 35.62743222,
   "longitude": 139.7564969,
   "address": "東京都港区港南５丁目４−３８"
 },
 {
   "id": 99,
   "name": "ローソン赤坂見附店",
   "type": "ローソン",
   "latitude": 35.67602611,
   "longitude": 139.73718,
   "address": "東京都港区赤坂３丁目８−１５"
 },
 {
   "id": 100,
   "name": "ナチュラルローソン　芝浦海岸通店",
   "type": "ローソン",
   "latitude": 35.64026361,
   "longitude": 139.7481583,
   "address": "東京都港区芝浦４丁目１３−２３"
 }
]